[
    {"country":[
        {"id":"3241","text":"Россия"},
        {"id":"32421","text":"Белорусь"},
        {"id":"32411","text":"Казахстан"}
    ]},
    {"city":[
        {"id":"3241","text":"Архангельск"},
        {"id":"3241231","text":"Екатеринберг"},
        {"id":"324231","text":"Москва"},
        {"id":"3212341","text":"Санкт-Петербург"},
        {"id":"3223141","text":"Ярославль"}
    ]},
    {"items":[
        {
            "name":"Аптека №1",
            "address":"г. Санкт-Петербург, пр. Невский, 173",
            "phone":"8 (812) 430-20-29",
            "worktime":"Пн-Вс 9:00-22:00",
            "icon":"/assets/img/marker-map.png",
            "geolocation":{
                "lat": 59.924192,
                "lng": 30.3806433
            }
        },
        {
            "name":"Аптека №2",
            "address":"г. Санкт-Петербург,<br>пр. Конногвардейский, д. 173, корп. 2",
            "phone":"8 (812) 430-20-29",
            "worktime":"Пн-Вс 9:00-22:00",
            "icon":"/assets/img/marker-map.png",
            "geolocation":{
                "lat": 59.924380,
                "lng": 30.381764
            }
        },
        {
            "name":"Аптека №3",
            "address":"г. Санкт-Петербург, пл. Восстания, д.5",
            "phone":"8 (812) 430-20-29",
            "worktime":"Пн-Вс 9:00-22:00",
            "icon":"/assets/img/marker-map.png",
            "geolocation":{
                "lat": 59.954192,
                "lng": 30.3706433
            }
        },
        {
            "name":"Аптека №3",
            "address":"г. Санкт-Петербург, пр. Невский, 173",
            "phone":"8 (812) 430-20-29",
            "worktime":"Пн-Вс 9:00-22:00",
            "icon":"/assets/img/marker-map.png",
            "geolocation":{
                "lat": 59.934192,
                "lng": 30.3806433
            }
        }
    ]}
]
